[{
  "_id": "63445ab0adb5727d4d008290",
  "name": "청담동",
  "longitude": 127.052135,
  "latitude": 37.52540984,
  "guId": "63441486be26106c41c6d732"
},{
  "_id": "63445ab0adb5727d4d008291",
  "name": "개포동",
  "longitude": 127.0617889,
  "latitude": 37.48242715,
  "guId": "63441486be26106c41c6d732"
},{
  "_id": "63445ab0adb5727d4d008292",
  "name": "역삼동",
  "longitude": 127.0392152,
  "latitude": 37.49927697,
  "guId": "63441486be26106c41c6d732"
},{
  "_id": "63445ab0adb5727d4d008293",
  "name": "대치동",
  "longitude": 127.0657834,
  "latitude": 37.49885733,
  "guId": "63441486be26106c41c6d732"
},{
  "_id": "63445ab0adb5727d4d008294",
  "name": "삼성동",
  "longitude": 127.0552961,
  "latitude": 37.51467025,
  "guId": "63441486be26106c41c6d732"
},{
  "_id": "63445ab0adb5727d4d008295",
  "name": "신사동",
  "longitude": 127.0227218,
  "latitude": 37.52881009,
  "guId": "63441486be26106c41c6d732"
},{
  "_id": "63445ab0adb5727d4d008296",
  "name": "논현동",
  "longitude": 127.0312604,
  "latitude": 37.51415029,
  "guId": "63441486be26106c41c6d732"
},{
  "_id": "63445ab0adb5727d4d008297",
  "name": "압구정동",
  "longitude": 127.0286102,
  "latitude": 37.5227125,
  "guId": "63441486be26106c41c6d732"
},{
  "_id": "63445ab0adb5727d4d008298",
  "name": "세곡동",
  "longitude": 127.1114976,
  "latitude": 37.47170903,
  "guId": "63441486be26106c41c6d732"
},{
  "_id": "63445ab0adb5727d4d008299",
  "name": "자곡동",
  "longitude": 127.1015431,
  "latitude": 37.4765826,
  "guId": "63441486be26106c41c6d732"
},{
  "_id": "63445ab0adb5727d4d00829a",
  "name": "수서동",
  "longitude": 127.0983199,
  "latitude": 37.48551756,
  "guId": "63441486be26106c41c6d732"
},{
  "_id": "63445ab0adb5727d4d00829b",
  "name": "일원동",
  "longitude": 127.0827589,
  "latitude": 37.48789678,
  "guId": "63441486be26106c41c6d732"
},{
  "_id": "63445ab0adb5727d4d00829c",
  "name": "율현동",
  "longitude": 127.1114976,
  "latitude": 37.47170903,
  "guId": "63441486be26106c41c6d732"
},{
  "_id": "63445ab0adb5727d4d00829d",
  "name": "도곡동",
  "longitude": 127.0443863,
  "latitude": 37.48785567,
  "guId": "63441486be26106c41c6d732"
},{
  "_id": "63445ab0adb5727d4d00829e",
  "name": "고덕동",
  "longitude": 127.1558632,
  "latitude": 37.56554267,
  "guId": "6344186cbe26106c41c6d733"
},{
  "_id": "63445ab0adb5727d4d00829f",
  "name": "명일동",
  "longitude": 127.1498051,
  "latitude": 37.5484065,
  "guId": "6344186cbe26106c41c6d733"
},{
  "_id": "63445ab0adb5727d4d0082a0",
  "name": "길동",
  "longitude": 127.1464359,
  "latitude": 37.53968838,
  "guId": "6344186cbe26106c41c6d733"
},{
  "_id": "63445ab0adb5727d4d0082a1",
  "name": "상일동",
  "longitude": 127.1696708,
  "latitude": 37.55083625,
  "guId": "6344186cbe26106c41c6d733"
},{
  "_id": "63445ab0adb5727d4d0082a2",
  "name": "둔촌동",
  "longitude": 127.1448377,
  "latitude": 37.52895416,
  "guId": "6344186cbe26106c41c6d733"
},{
  "_id": "63445ab0adb5727d4d0082a3",
  "name": "암사동",
  "longitude": 127.1301647,
  "latitude": 37.55775749,
  "guId": "6344186cbe26106c41c6d733"
},{
  "_id": "63445ab0adb5727d4d0082a4",
  "name": "강일동",
  "longitude": 127.1696708,
  "latitude": 37.55083625,
  "guId": "6344186cbe26106c41c6d733"
},{
  "_id": "63445ab0adb5727d4d0082a5",
  "name": "천호동",
  "longitude": 127.127541,
  "latitude": 37.54312229,
  "guId": "6344186cbe26106c41c6d733"
},{
  "_id": "63445ab0adb5727d4d0082a6",
  "name": "성내동",
  "longitude": 127.128886,
  "latitude": 37.53044457,
  "guId": "6344186cbe26106c41c6d733"
},{
  "_id": "63445ab0adb5727d4d0082a7",
  "name": "미아동",
  "longitude": 127.0209401,
  "latitude": 37.62191076,
  "guId": "6344187ebe26106c41c6d734"
},{
  "_id": "63445ab0adb5727d4d0082a8",
  "name": "번동",
  "longitude": 127.0375597,
  "latitude": 37.62920563,
  "guId": "6344187ebe26106c41c6d734"
},{
  "_id": "63445ab0adb5727d4d0082a9",
  "name": "수유동",
  "longitude": 127.00706,
  "latitude": 37.65538,
  "guId": "6344187ebe26106c41c6d734"
},{
  "_id": "63445ab0adb5727d4d0082aa",
  "name": "우이동",
  "longitude": 127.0048047,
  "latitude": 37.6370593,
  "guId": "6344187ebe26106c41c6d734"
},{
  "_id": "63445ab0adb5727d4d0082ab",
  "name": "염창동",
  "longitude": 126.8498191,
  "latitude": 37.56794968,
  "guId": "63441a3ebe26106c41c6d735"
},{
  "_id": "63445ab0adb5727d4d0082ac",
  "name": "등촌동",
  "longitude": 126.8615517,
  "latitude": 37.55196261,
  "guId": "63441a3ebe26106c41c6d735"
},{
  "_id": "63445ab0adb5727d4d0082ad",
  "name": "화곡동",
  "longitude": 126.8441304,
  "latitude": 37.54216688,
  "guId": "63441a3ebe26106c41c6d735"
},{
  "_id": "63445ab0adb5727d4d0082ae",
  "name": "외발산동",
  "longitude": 126.8169757,
  "latitude": 37.54871814,
  "guId": "63441a3ebe26106c41c6d735"
},{
  "_id": "63445ab0adb5727d4d0082af",
  "name": "내발산동",
  "longitude": 126.833258,
  "latitude": 37.55282787,
  "guId": "63441a3ebe26106c41c6d735"
},{
  "_id": "63445ab0adb5727d4d0082b0",
  "name": "마곡동",
  "longitude": 126.8302779,
  "latitude": 37.57010337,
  "guId": "63441a3ebe26106c41c6d735"
},{
  "_id": "63445ab0adb5727d4d0082b1",
  "name": "공항동",
  "longitude": 126.7874588,
  "latitude": 37.56622445,
  "guId": "63441a3ebe26106c41c6d735"
},{
  "_id": "63445ab0adb5727d4d0082b2",
  "name": "방화동",
  "longitude": 126.8134485,
  "latitude": 37.57731978,
  "guId": "63441a3ebe26106c41c6d735"
},{
  "_id": "63445ab0adb5727d4d0082b3",
  "name": "가양동",
  "longitude": 126.8498191,
  "latitude": 37.56794968,
  "guId": "63441a3ebe26106c41c6d735"
},{
  "_id": "63445ab0adb5727d4d0082b4",
  "name": "개화동",
  "longitude": 126.8064634,
  "latitude": 37.58660444,
  "guId": "63441a3ebe26106c41c6d735"
},{
  "_id": "63445ab0adb5727d4d0082b5",
  "name": "과해동",
  "longitude": 126.7874588,
  "latitude": 37.56622445,
  "guId": "63441a3ebe26106c41c6d735"
},{
  "_id": "63445ab0adb5727d4d0082b6",
  "name": "오곡동",
  "longitude": 126.7841439,
  "latitude": 37.55339601,
  "guId": "63441a3ebe26106c41c6d735"
},{
  "_id": "63445ab0adb5727d4d0082b7",
  "name": "오쇠동",
  "longitude": 126.7995359,
  "latitude": 37.54356028,
  "guId": "63441a3ebe26106c41c6d735"
},{
  "_id": "63445ab0adb5727d4d0082b8",
  "name": "남현동",
  "longitude": 126.9799613,
  "latitude": 37.46306021,
  "guId": "63441a58be26106c41c6d736"
},{
  "_id": "63445ab0adb5727d4d0082b9",
  "name": "신림동",
  "longitude": 126.9346071,
  "latitude": 37.4630596,
  "guId": "63441a58be26106c41c6d736"
},{
  "_id": "63445ab0adb5727d4d0082ba",
  "name": "봉천동",
  "longitude": 126.9569915,
  "latitude": 37.47505523,
  "guId": "63441a58be26106c41c6d736"
},{
  "_id": "63445ab0adb5727d4d0082bb",
  "name": "중곡동",
  "longitude": 127.0875674,
  "latitude": 37.56301712,
  "guId": "63441a67be26106c41c6d737"
},{
  "_id": "63445ab0adb5727d4d0082bc",
  "name": "능동",
  "longitude": 127.0826352,
  "latitude": 37.55113576,
  "guId": "63441a67be26106c41c6d737"
},{
  "_id": "63445ab0adb5727d4d0082bd",
  "name": "구의동",
  "longitude": 127.0873332,
  "latitude": 37.54355331,
  "guId": "63441a67be26106c41c6d737"
},{
  "_id": "63445ab0adb5727d4d0082be",
  "name": "광장동",
  "longitude": 127.1047856,
  "latitude": 37.54773181,
  "guId": "63441a67be26106c41c6d737"
},{
  "_id": "63445ab0adb5727d4d0082bf",
  "name": "자양동",
  "longitude": 127.0750916,
  "latitude": 37.53243087,
  "guId": "63441a67be26106c41c6d737"
},{
  "_id": "63445ab0adb5727d4d0082c0",
  "name": "화양동",
  "longitude": 127.0730799,
  "latitude": 37.54361035,
  "guId": "63441a67be26106c41c6d737"
},{
  "_id": "63445ab0adb5727d4d0082c1",
  "name": "군자동",
  "longitude": 127.073825,
  "latitude": 37.55327456,
  "guId": "63441a67be26106c41c6d737"
},{
  "_id": "63445ab0adb5727d4d0082c2",
  "name": "고척동",
  "longitude": 126.8629495,
  "latitude": 37.50242997,
  "guId": "63441a94be26106c41c6d738"
},{
  "_id": "63445ab0adb5727d4d0082c3",
  "name": "가리봉동",
  "longitude": 126.8880273,
  "latitude": 37.4830544,
  "guId": "63441a94be26106c41c6d738"
},{
  "_id": "63445ab0adb5727d4d0082c4",
  "name": "개봉동",
  "longitude": 126.8560503,
  "latitude": 37.49466652,
  "guId": "63441a94be26106c41c6d738"
},{
  "_id": "63445ab0adb5727d4d0082c5",
  "name": "구로동",
  "longitude": 126.8824861,
  "latitude": 37.49372768,
  "guId": "63441a94be26106c41c6d738"
},{
  "_id": "63445ab0adb5727d4d0082c6",
  "name": "오류동",
  "longitude": 126.8382937,
  "latitude": 37.49221966,
  "guId": "63441a94be26106c41c6d738"
},{
  "_id": "63445ab0adb5727d4d0082c7",
  "name": "온수동",
  "longitude": 126.8207514,
  "latitude": 37.49366905,
  "guId": "63441a94be26106c41c6d738"
},{
  "_id": "63445ab0adb5727d4d0082c8",
  "name": "신도림동",
  "longitude": 126.8829518,
  "latitude": 37.51059452,
  "guId": "63441a94be26106c41c6d738"
},{
  "_id": "63445ab0adb5727d4d0082c9",
  "name": "궁동",
  "longitude": 126.8278251,
  "latitude": 37.50100162,
  "guId": "63441a94be26106c41c6d738"
},{
  "_id": "63445ab0adb5727d4d0082ca",
  "name": "천왕동",
  "longitude": 126.8391716,
  "latitude": 37.48112616,
  "guId": "63441a94be26106c41c6d738"
},{
  "_id": "63445ab0adb5727d4d0082cb",
  "name": "항동",
  "longitude": 126.8259374,
  "latitude": 37.48108349,
  "guId": "63441a94be26106c41c6d738"
},{
  "_id": "63445ab0adb5727d4d0082cc",
  "name": "시흥동",
  "longitude": 126.9118592,
  "latitude": 37.44964285,
  "guId": "63441aa3be26106c41c6d739"
},{
  "_id": "63445ab0adb5727d4d0082cd",
  "name": "독산동",
  "longitude": 126.9007561,
  "latitude": 37.46643569,
  "guId": "63441aa3be26106c41c6d739"
},{
  "_id": "63445ab0adb5727d4d0082ce",
  "name": "가산동",
  "longitude": 126.8865564,
  "latitude": 37.47548176,
  "guId": "63441aa3be26106c41c6d739"
},{
  "_id": "63445ab0adb5727d4d0082cf",
  "name": "월계동",
  "longitude": 127.0540225,
  "latitude": 37.62955716,
  "guId": "63441b80be26106c41c6d73a"
},{
  "_id": "63445ab0adb5727d4d0082d0",
  "name": "공릉동",
  "longitude": 127.087394,
  "latitude": 37.63043446,
  "guId": "63441b80be26106c41c6d73a"
},{
  "_id": "63445ab0adb5727d4d0082d1",
  "name": "하계동",
  "longitude": 127.0740419,
  "latitude": 37.63846269,
  "guId": "63441b80be26106c41c6d73a"
},{
  "_id": "63445ab0adb5727d4d0082d2",
  "name": "중계동",
  "longitude": 127.0811684,
  "latitude": 37.65094633,
  "guId": "63441b80be26106c41c6d73a"
},{
  "_id": "63445ab0adb5727d4d0082d3",
  "name": "상계동",
  "longitude": 127.0722769,
  "latitude": 37.66636668,
  "guId": "63441b80be26106c41c6d73a"
},{
  "_id": "63445ab0adb5727d4d0082d4",
  "name": "쌍문동",
  "longitude": 127.024788,
  "latitude": 37.65254664,
  "guId": "63441b91be26106c41c6d73b"
},{
  "_id": "63445ab0adb5727d4d0082d5",
  "name": "방학동",
  "longitude": 127.0332898,
  "latitude": 37.66465347,
  "guId": "63441b91be26106c41c6d73b"
},{
  "_id": "63445ab0adb5727d4d0082d6",
  "name": "도봉동",
  "longitude": 127.0302195,
  "latitude": 37.68520278,
  "guId": "63441b91be26106c41c6d73b"
},{
  "_id": "63445ab0adb5727d4d0082d7",
  "name": "창동",
  "longitude": 127.0445802,
  "latitude": 37.64631001,
  "guId": "63441b91be26106c41c6d73b"
},{
  "_id": "63445ab0adb5727d4d0082d8",
  "name": "제기동",
  "longitude": 127.0371359,
  "latitude": 37.5847843,
  "guId": "63441b98be26106c41c6d73c"
},{
  "_id": "63445ab0adb5727d4d0082d9",
  "name": "용두동",
  "longitude": 127.0363952,
  "latitude": 37.57628963,
  "guId": "63441b98be26106c41c6d73c"
},{
  "_id": "63445ab0adb5727d4d0082da",
  "name": "전농동",
  "longitude": 127.0569413,
  "latitude": 37.58032514,
  "guId": "63441b98be26106c41c6d73c"
},{
  "_id": "63445ab0adb5727d4d0082db",
  "name": "장안동",
  "longitude": 127.0716752,
  "latitude": 37.57115502,
  "guId": "63441b98be26106c41c6d73c"
},{
  "_id": "63445ab0adb5727d4d0082dc",
  "name": "답십리동",
  "longitude": 127.05646,
  "latitude": 37.57005459,
  "guId": "63441b98be26106c41c6d73c"
},{
  "_id": "63445ab0adb5727d4d0082dd",
  "name": "신설동",
  "longitude": 127.0255857,
  "latitude": 37.57478889,
  "guId": "63441b98be26106c41c6d73c"
},{
  "_id": "63445ab0adb5727d4d0082de",
  "name": "청량리동",
  "longitude": 127.0461507,
  "latitude": 37.58831358,
  "guId": "63441b98be26106c41c6d73c"
},{
  "_id": "63445ab0adb5727d4d0082df",
  "name": "회기동",
  "longitude": 127.0509581,
  "latitude": 37.59453657,
  "guId": "63441b98be26106c41c6d73c"
},{
  "_id": "63445ab0adb5727d4d0082e0",
  "name": "이문동",
  "longitude": 127.0623198,
  "latitude": 37.59939531,
  "guId": "63441b98be26106c41c6d73c"
},{
  "_id": "63445ab0adb5727d4d0082e1",
  "name": "휘경동",
  "longitude": 127.0625978,
  "latitude": 37.58815275,
  "guId": "63441b98be26106c41c6d73c"
},{
  "_id": "63445ab0adb5727d4d0082e2",
  "name": "상도동",
  "longitude": 126.9402818,
  "latitude": 37.49960695,
  "guId": "63441ba9be26106c41c6d73d"
},{
  "_id": "63445ab0adb5727d4d0082e3",
  "name": "본동",
  "longitude": 126.9551973,
  "latitude": 37.51248219,
  "guId": "63441ba9be26106c41c6d73d"
},{
  "_id": "63445ab0adb5727d4d0082e4",
  "name": "상도1동",
  "longitude": 126.9402818,
  "latitude": 37.49960695,
  "guId": "63441ba9be26106c41c6d73d"
},{
  "_id": "63445ab0adb5727d4d0082e5",
  "name": "동작동",
  "longitude": 126.9745402,
  "latitude": 37.49989898,
  "guId": "63441ba9be26106c41c6d73d"
},{
  "_id": "63445ab0adb5727d4d0082e6",
  "name": "흑석동",
  "longitude": 126.9629631,
  "latitude": 37.50527208,
  "guId": "63441ba9be26106c41c6d73d"
},{
  "_id": "63445ab0adb5727d4d0082e7",
  "name": "사당동",
  "longitude": 126.972033,
  "latitude": 37.48517873,
  "guId": "63441ba9be26106c41c6d73d"
},{
  "_id": "63445ab0adb5727d4d0082e8",
  "name": "노량진동",
  "longitude": 126.9417536,
  "latitude": 37.51146707,
  "guId": "63441ba9be26106c41c6d73d"
},{
  "_id": "63445ab0adb5727d4d0082e9",
  "name": "대방동",
  "longitude": 126.9291038,
  "latitude": 37.50674862,
  "guId": "63441ba9be26106c41c6d73d"
},{
  "_id": "63445ab0adb5727d4d0082ea",
  "name": "신대방동",
  "longitude": 126.9172652,
  "latitude": 37.49224314,
  "guId": "63441ba9be26106c41c6d73d"
},{
  "_id": "63445ab0adb5727d4d0082eb",
  "name": "용강동",
  "longitude": 126.9503989,
  "latitude": 37.5395533,
  "guId": "63441bb4be26106c41c6d73e"
},{
  "_id": "63445ab0adb5727d4d0082ec",
  "name": "신공덕동",
  "longitude": 126.9557098,
  "latitude": 37.54434838,
  "guId": "63441bb4be26106c41c6d73e"
},{
  "_id": "63445ab0adb5727d4d0082ed",
  "name": "마포동",
  "longitude": 126.9435403,
  "latitude": 37.53683549,
  "guId": "63441bb4be26106c41c6d73e"
},{
  "_id": "63445ab0adb5727d4d0082ee",
  "name": "토정동",
  "longitude": 126.9396996,
  "latitude": 37.53915193,
  "guId": "63441bb4be26106c41c6d73e"
},{
  "_id": "63445ab0adb5727d4d0082ef",
  "name": "도화동",
  "longitude": 126.9435403,
  "latitude": 37.53683549,
  "guId": "63441bb4be26106c41c6d73e"
},{
  "_id": "63445ab0adb5727d4d0082f0",
  "name": "아현동",
  "longitude": 126.9529935,
  "latitude": 37.5473878,
  "guId": "63441bb4be26106c41c6d73e"
},{
  "_id": "63445ab0adb5727d4d0082f1",
  "name": "대흥동",
  "longitude": 126.9380114,
  "latitude": 37.55402004,
  "guId": "63441bb4be26106c41c6d73e"
},{
  "_id": "63445ab0adb5727d4d0082f2",
  "name": "공덕동",
  "longitude": 126.9503989,
  "latitude": 37.5395533,
  "guId": "63441bb4be26106c41c6d73e"
},{
  "_id": "63445ab0adb5727d4d0082f3",
  "name": "상수동",
  "longitude": 126.9241705,
  "latitude": 37.54702299,
  "guId": "63441bb4be26106c41c6d73e"
},{
  "_id": "63445ab0adb5727d4d0082f4",
  "name": "염리동",
  "longitude": 126.9529935,
  "latitude": 37.5473878,
  "guId": "63441bb4be26106c41c6d73e"
},{
  "_id": "63445ab0adb5727d4d0082f5",
  "name": "구수동",
  "longitude": 126.9328024,
  "latitude": 37.54600414,
  "guId": "63441bb4be26106c41c6d73e"
},{
  "_id": "63445ab0adb5727d4d0082f6",
  "name": "신정동",
  "longitude": 126.9305331,
  "latitude": 37.54325664,
  "guId": "63441bb4be26106c41c6d73e"
},{
  "_id": "63445ab0adb5727d4d0082f7",
  "name": "하중동",
  "longitude": 126.9277692,
  "latitude": 37.54378385,
  "guId": "63441bb4be26106c41c6d73e"
},{
  "_id": "63445ab0adb5727d4d0082f8",
  "name": "창전동",
  "longitude": 126.9299746,
  "latitude": 37.54983519,
  "guId": "63441bb4be26106c41c6d73e"
},{
  "_id": "63445ab0adb5727d4d0082f9",
  "name": "신수동",
  "longitude": 126.9305331,
  "latitude": 37.54325664,
  "guId": "63441bb4be26106c41c6d73e"
},{
  "_id": "63445ab0adb5727d4d0082fa",
  "name": "당인동",
  "longitude": 126.9263182,
  "latitude": 37.54027107,
  "guId": "63441bb4be26106c41c6d73e"
},{
  "_id": "63445ab0adb5727d4d0082fb",
  "name": "노고산동",
  "longitude": 126.9380114,
  "latitude": 37.55402004,
  "guId": "63441bb4be26106c41c6d73e"
},{
  "_id": "63445ab0adb5727d4d0082fc",
  "name": "현석동",
  "longitude": 126.9345139,
  "latitude": 37.54226027,
  "guId": "63441bb4be26106c41c6d73e"
},{
  "_id": "63445ab0adb5727d4d0082fd",
  "name": "중동",
  "longitude": 126.9055938,
  "latitude": 37.57164442,
  "guId": "63441bb4be26106c41c6d73e"
},{
  "_id": "63445ab0adb5727d4d0082fe",
  "name": "연남동",
  "longitude": 126.9226282,
  "latitude": 37.56263432,
  "guId": "63441bb4be26106c41c6d73e"
},{
  "_id": "63445ab0adb5727d4d0082ff",
  "name": "서교동",
  "longitude": 126.9239551,
  "latitude": 37.55831827,
  "guId": "63441bb4be26106c41c6d73e"
},{
  "_id": "63445ab0adb5727d4d008300",
  "name": "상암동",
  "longitude": 126.8729106,
  "latitude": 37.57147341,
  "guId": "63441bb4be26106c41c6d73e"
},{
  "_id": "63445ab0adb5727d4d008301",
  "name": "성산동",
  "longitude": 126.9055927,
  "latitude": 37.5662404,
  "guId": "63441bb4be26106c41c6d73e"
},{
  "_id": "63445ab0adb5727d4d008302",
  "name": "합정동",
  "longitude": 126.9096132,
  "latitude": 37.54773369,
  "guId": "63441bb4be26106c41c6d73e"
},{
  "_id": "63445ab0adb5727d4d008303",
  "name": "동교동",
  "longitude": 126.9239551,
  "latitude": 37.55831827,
  "guId": "63441bb4be26106c41c6d73e"
},{
  "_id": "63445ab0adb5727d4d008304",
  "name": "망원동",
  "longitude": 126.9013679,
  "latitude": 37.55663245,
  "guId": "63441bb4be26106c41c6d73e"
},{
  "_id": "63445ab0adb5727d4d008305",
  "name": "충정로2가",
  "longitude": 126.9635644,
  "latitude": 37.56495514,
  "guId": "63441bbbbe26106c41c6d73f"
},{
  "_id": "63445ab0adb5727d4d008306",
  "name": "충정로3가",
  "longitude": 126.962235,
  "latitude": 37.56229205,
  "guId": "63441bbbbe26106c41c6d73f"
},{
  "_id": "63445ab0adb5727d4d008307",
  "name": "옥천동",
  "longitude": 126.9577653,
  "latitude": 37.56918791,
  "guId": "63441bbbbe26106c41c6d73f"
},{
  "_id": "63445ab0adb5727d4d008308",
  "name": "현저동",
  "longitude": 126.9539815,
  "latitude": 37.57413913,
  "guId": "63441bbbbe26106c41c6d73f"
},{
  "_id": "63445ab0adb5727d4d008309",
  "name": "합동",
  "longitude": 126.9657435,
  "latitude": 37.56136241,
  "guId": "63441bbbbe26106c41c6d73f"
},{
  "_id": "63445ab0adb5727d4d00830a",
  "name": "홍제동",
  "longitude": 126.9465768,
  "latitude": 37.58720391,
  "guId": "63441bbbbe26106c41c6d73f"
},{
  "_id": "63445ab0adb5727d4d00830b",
  "name": "북아현동",
  "longitude": 126.9474938,
  "latitude": 37.56133852,
  "guId": "63441bbbbe26106c41c6d73f"
},{
  "_id": "63445ab0adb5727d4d00830c",
  "name": "영천동",
  "longitude": 126.9569979,
  "latitude": 37.57014723,
  "guId": "63441bbbbe26106c41c6d73f"
},{
  "_id": "63445ab0adb5727d4d00830d",
  "name": "대현동",
  "longitude": 126.9474938,
  "latitude": 37.56133852,
  "guId": "63441bbbbe26106c41c6d73f"
},{
  "_id": "63445ab0adb5727d4d00830e",
  "name": "냉천동",
  "longitude": 126.9631407,
  "latitude": 37.56750936,
  "guId": "63441bbbbe26106c41c6d73f"
},{
  "_id": "63445ab0adb5727d4d00830f",
  "name": "미근동",
  "longitude": 126.9675493,
  "latitude": 37.5635672,
  "guId": "63441bbbbe26106c41c6d73f"
},{
  "_id": "63445ab0adb5727d4d008310",
  "name": "천연동",
  "longitude": 126.9539815,
  "latitude": 37.57413913,
  "guId": "63441bbbbe26106c41c6d73f"
},{
  "_id": "63445ab0adb5727d4d008311",
  "name": "연희동",
  "longitude": 126.9328985,
  "latitude": 37.5725346,
  "guId": "63441bbbbe26106c41c6d73f"
},{
  "_id": "63445ab0adb5727d4d008312",
  "name": "북가좌동",
  "longitude": 126.9101271,
  "latitude": 37.57881003,
  "guId": "63441bbbbe26106c41c6d73f"
},{
  "_id": "63445ab0adb5727d4d008313",
  "name": "대신동",
  "longitude": 126.9449149,
  "latitude": 37.56460859,
  "guId": "63441bbbbe26106c41c6d73f"
},{
  "_id": "63445ab0adb5727d4d008314",
  "name": "홍은동",
  "longitude": 126.9376495,
  "latitude": 37.59332229,
  "guId": "63441bbbbe26106c41c6d73f"
},{
  "_id": "63445ab0adb5727d4d008315",
  "name": "남가좌동",
  "longitude": 126.9209904,
  "latitude": 37.57669991,
  "guId": "63441bbbbe26106c41c6d73f"
},{
  "_id": "63445ab0adb5727d4d008316",
  "name": "봉원동",
  "longitude": 126.9471154,
  "latitude": 37.5726852,
  "guId": "63441bbbbe26106c41c6d73f"
},{
  "_id": "63445ab0adb5727d4d008317",
  "name": "신촌동",
  "longitude": 126.9341931,
  "latitude": 37.55881377,
  "guId": "63441bbbbe26106c41c6d73f"
},{
  "_id": "63445ab0adb5727d4d008318",
  "name": "창천동",
  "longitude": 126.9341931,
  "latitude": 37.55881377,
  "guId": "63441bbbbe26106c41c6d73f"
},{
  "_id": "63445ab0adb5727d4d008319",
  "name": "방배동",
  "longitude": 126.9939851,
  "latitude": 37.47912809,
  "guId": "63441bedbe26106c41c6d740"
},{
  "_id": "63445ab0adb5727d4d00831a",
  "name": "양재동",
  "longitude": 127.0385688,
  "latitude": 37.46880589,
  "guId": "63441bedbe26106c41c6d740"
},{
  "_id": "63445ab0adb5727d4d00831b",
  "name": "서초동",
  "longitude": 127.0162998,
  "latitude": 37.48845867,
  "guId": "63441bedbe26106c41c6d740"
},{
  "_id": "63445ab0adb5727d4d00831c",
  "name": "염곡동",
  "longitude": 127.0541792,
  "latitude": 37.46311561,
  "guId": "63441bedbe26106c41c6d740"
},{
  "_id": "63445ab0adb5727d4d00831d",
  "name": "우면동",
  "longitude": 127.0171696,
  "latitude": 37.46609484,
  "guId": "63441bedbe26106c41c6d740"
},{
  "_id": "63445ab0adb5727d4d00831e",
  "name": "내곡동",
  "longitude": 127.0541792,
  "latitude": 37.46311561,
  "guId": "63441bedbe26106c41c6d740"
},{
  "_id": "63445ab0adb5727d4d00831f",
  "name": "신원동",
  "longitude": 127.063971,
  "latitude": 37.44516352,
  "guId": "63441bedbe26106c41c6d740"
},{
  "_id": "63445ab0adb5727d4d008320",
  "name": "잠원동",
  "longitude": 127.0098641,
  "latitude": 37.51493466,
  "guId": "63441bedbe26106c41c6d740"
},{
  "_id": "63445ab0adb5727d4d008321",
  "name": "원지동",
  "longitude": 127.0479721,
  "latitude": 37.44499174,
  "guId": "63441bedbe26106c41c6d740"
},{
  "_id": "63445ab0adb5727d4d008322",
  "name": "반포동",
  "longitude": 127.0023271,
  "latitude": 37.5046175,
  "guId": "63441bedbe26106c41c6d740"
},{
  "_id": "63445ab0adb5727d4d008323",
  "name": "상왕십리동",
  "longitude": 127.0246784,
  "latitude": 37.56861754,
  "guId": "63441bfabe26106c41c6d741"
},{
  "_id": "63445ab0adb5727d4d008324",
  "name": "하왕십리동",
  "longitude": 127.0282421,
  "latitude": 37.56430104,
  "guId": "63441bfabe26106c41c6d741"
},{
  "_id": "63445ab0adb5727d4d008325",
  "name": "행당동",
  "longitude": 127.0348084,
  "latitude": 37.55915152,
  "guId": "63441bfabe26106c41c6d741"
},{
  "_id": "63445ab0adb5727d4d008326",
  "name": "금호동1가",
  "longitude": 127.0265454,
  "latitude": 37.55296222,
  "guId": "63441bfabe26106c41c6d741"
},{
  "_id": "63445ab0adb5727d4d008327",
  "name": "홍익동",
  "longitude": 127.03182,
  "latitude": 37.56731045,
  "guId": "63441bfabe26106c41c6d741"
},{
  "_id": "63445ab0adb5727d4d008328",
  "name": "응봉동",
  "longitude": 127.0334962,
  "latitude": 37.55054428,
  "guId": "63441bfabe26106c41c6d741"
},{
  "_id": "63445ab0adb5727d4d008329",
  "name": "금호동2가",
  "longitude": 127.0201552,
  "latitude": 37.55279151,
  "guId": "63441bfabe26106c41c6d741"
},{
  "_id": "63445ab0adb5727d4d00832a",
  "name": "금호동3가",
  "longitude": 127.0189925,
  "latitude": 37.55034183,
  "guId": "63441bfabe26106c41c6d741"
},{
  "_id": "63445ab0adb5727d4d00832b",
  "name": "마장동",
  "longitude": 127.0406041,
  "latitude": 37.56712409,
  "guId": "63441bfabe26106c41c6d741"
},{
  "_id": "63445ab0adb5727d4d00832c",
  "name": "금호동4가",
  "longitude": 127.0257607,
  "latitude": 37.54520841,
  "guId": "63441bfabe26106c41c6d741"
},{
  "_id": "63445ab0adb5727d4d00832d",
  "name": "도선동",
  "longitude": 127.0339157,
  "latitude": 37.56342568,
  "guId": "63441bfabe26106c41c6d741"
},{
  "_id": "63445ab0adb5727d4d00832e",
  "name": "용답동",
  "longitude": 127.0616091,
  "latitude": 37.55420491,
  "guId": "63441bfabe26106c41c6d741"
},{
  "_id": "63445ab0adb5727d4d00832f",
  "name": "사근동",
  "longitude": 127.0348084,
  "latitude": 37.55915152,
  "guId": "63441bfabe26106c41c6d741"
},{
  "_id": "63445ab0adb5727d4d008330",
  "name": "옥수동",
  "longitude": 127.0149615,
  "latitude": 37.5421221,
  "guId": "63441bfabe26106c41c6d741"
},{
  "_id": "63445ab0adb5727d4d008331",
  "name": "성수동2가",
  "longitude": 127.056985,
  "latitude": 37.53964824,
  "guId": "63441bfabe26106c41c6d741"
},{
  "_id": "63445ab0adb5727d4d008332",
  "name": "성수동1가",
  "longitude": 127.041551,
  "latitude": 37.54303055,
  "guId": "63441bfabe26106c41c6d741"
},{
  "_id": "63445ab0adb5727d4d008333",
  "name": "송정동",
  "longitude": 127.0616091,
  "latitude": 37.55420491,
  "guId": "63441bfabe26106c41c6d741"
},{
  "_id": "63445ab0adb5727d4d008334",
  "name": "성북동1가",
  "longitude": 127.0040574,
  "latitude": 37.58791087,
  "guId": "63441c0cbe26106c41c6d742"
},{
  "_id": "63445ab0adb5727d4d008335",
  "name": "성북동",
  "longitude": 127.0035905,
  "latitude": 37.58955132,
  "guId": "63441c0cbe26106c41c6d742"
},{
  "_id": "63445ab0adb5727d4d008336",
  "name": "돈암동",
  "longitude": 127.0092338,
  "latitude": 37.59710871,
  "guId": "63441c0cbe26106c41c6d742"
},{
  "_id": "63445ab0adb5727d4d008337",
  "name": "동소문동1가",
  "longitude": 127.0073594,
  "latitude": 37.59012533,
  "guId": "63441c0cbe26106c41c6d742"
},{
  "_id": "63445ab0adb5727d4d008338",
  "name": "동소문동2가",
  "longitude": 127.0083431,
  "latitude": 37.58881678,
  "guId": "63441c0cbe26106c41c6d742"
},{
  "_id": "63445ab0adb5727d4d008339",
  "name": "동소문동7가",
  "longitude": 127.0141637,
  "latitude": 37.59632153,
  "guId": "63441c0cbe26106c41c6d742"
},{
  "_id": "63445ab0adb5727d4d00833a",
  "name": "삼선동2가",
  "longitude": 127.0099557,
  "latitude": 37.58879914,
  "guId": "63441c0cbe26106c41c6d742"
},{
  "_id": "63445ab0adb5727d4d00833b",
  "name": "동소문동3가",
  "longitude": 127.0108616,
  "latitude": 37.59026954,
  "guId": "63441c0cbe26106c41c6d742"
},{
  "_id": "63445ab0adb5727d4d00833c",
  "name": "삼선동1가",
  "longitude": 127.0043223,
  "latitude": 37.58752891,
  "guId": "63441c0cbe26106c41c6d742"
},{
  "_id": "63445ab0adb5727d4d00833d",
  "name": "삼선동3가",
  "longitude": 127.0108933,
  "latitude": 37.58836688,
  "guId": "63441c0cbe26106c41c6d742"
},{
  "_id": "63445ab0adb5727d4d00833e",
  "name": "동소문동5가",
  "longitude": 127.0150858,
  "latitude": 37.5915369,
  "guId": "63441c0cbe26106c41c6d742"
},{
  "_id": "63445ab0adb5727d4d00833f",
  "name": "삼선동4가",
  "longitude": 127.0111139,
  "latitude": 37.5894755,
  "guId": "63441c0cbe26106c41c6d742"
},{
  "_id": "63445ab0adb5727d4d008340",
  "name": "삼선동5가",
  "longitude": 127.0139994,
  "latitude": 37.58937506,
  "guId": "63441c0cbe26106c41c6d742"
},{
  "_id": "63445ab0adb5727d4d008341",
  "name": "동소문동4가",
  "longitude": 127.0107821,
  "latitude": 37.59182575,
  "guId": "63441c0cbe26106c41c6d742"
},{
  "_id": "63445ab0adb5727d4d008342",
  "name": "동선동5가",
  "longitude": 127.0164314,
  "latitude": 37.59480761,
  "guId": "63441c0cbe26106c41c6d742"
},{
  "_id": "63445ab0adb5727d4d008343",
  "name": "동소문동6가",
  "longitude": 127.0140362,
  "latitude": 37.59360251,
  "guId": "63441c0cbe26106c41c6d742"
},{
  "_id": "63445ab0adb5727d4d008344",
  "name": "안암동2가",
  "longitude": 127.0209148,
  "latitude": 37.58685613,
  "guId": "63441c0cbe26106c41c6d742"
},{
  "_id": "63445ab0adb5727d4d008345",
  "name": "동선동1가",
  "longitude": 127.0173103,
  "latitude": 37.5928121,
  "guId": "63441c0cbe26106c41c6d742"
},{
  "_id": "63445ab0adb5727d4d008346",
  "name": "안암동1가",
  "longitude": 127.019123,
  "latitude": 37.58883761,
  "guId": "63441c0cbe26106c41c6d742"
},{
  "_id": "63445ab0adb5727d4d008347",
  "name": "안암동3가",
  "longitude": 127.0216795,
  "latitude": 37.58469889,
  "guId": "63441c0cbe26106c41c6d742"
},{
  "_id": "63445ab0adb5727d4d008348",
  "name": "동선동3가",
  "longitude": 127.0198579,
  "latitude": 37.59464133,
  "guId": "63441c0cbe26106c41c6d742"
},{
  "_id": "63445ab0adb5727d4d008349",
  "name": "안암동4가",
  "longitude": 127.0233114,
  "latitude": 37.58116298,
  "guId": "63441c0cbe26106c41c6d742"
},{
  "_id": "63445ab0adb5727d4d00834a",
  "name": "안암동5가",
  "longitude": 127.0309857,
  "latitude": 37.59101933,
  "guId": "63441c0cbe26106c41c6d742"
},{
  "_id": "63445ab0adb5727d4d00834b",
  "name": "동선동2가",
  "longitude": 127.0176018,
  "latitude": 37.58995497,
  "guId": "63441c0cbe26106c41c6d742"
},{
  "_id": "63445ab0adb5727d4d00834c",
  "name": "보문동5가",
  "longitude": 127.0198031,
  "latitude": 37.58350297,
  "guId": "63441c0cbe26106c41c6d742"
},{
  "_id": "63445ab0adb5727d4d00834d",
  "name": "동선동4가",
  "longitude": 127.0170417,
  "latitude": 37.59332043,
  "guId": "63441c0cbe26106c41c6d742"
},{
  "_id": "63445ab0adb5727d4d00834e",
  "name": "보문동7가",
  "longitude": 127.0225717,
  "latitude": 37.58073834,
  "guId": "63441c0cbe26106c41c6d742"
},{
  "_id": "63445ab0adb5727d4d00834f",
  "name": "보문동1가",
  "longitude": 127.018635,
  "latitude": 37.58840133,
  "guId": "63441c0cbe26106c41c6d742"
},{
  "_id": "63445ab0adb5727d4d008350",
  "name": "정릉동",
  "longitude": 126.9972712,
  "latitude": 37.61677268,
  "guId": "63441c0cbe26106c41c6d742"
},{
  "_id": "63445ab0adb5727d4d008351",
  "name": "보문동6가",
  "longitude": 127.0183131,
  "latitude": 37.58298233,
  "guId": "63441c0cbe26106c41c6d742"
},{
  "_id": "63445ab0adb5727d4d008352",
  "name": "보문동3가",
  "longitude": 127.016595,
  "latitude": 37.58557757,
  "guId": "63441c0cbe26106c41c6d742"
},{
  "_id": "63445ab0adb5727d4d008353",
  "name": "길음동",
  "longitude": 127.023269,
  "latitude": 37.6085254,
  "guId": "63441c0cbe26106c41c6d742"
},{
  "_id": "63445ab0adb5727d4d008354",
  "name": "종암동",
  "longitude": 127.0332363,
  "latitude": 37.59656592,
  "guId": "63441c0cbe26106c41c6d742"
},{
  "_id": "63445ab0adb5727d4d008355",
  "name": "보문동2가",
  "longitude": 127.0177861,
  "latitude": 37.58728045,
  "guId": "63441c0cbe26106c41c6d742"
},{
  "_id": "63445ab0adb5727d4d008356",
  "name": "보문동4가",
  "longitude": 127.0203127,
  "latitude": 37.58408889,
  "guId": "63441c0cbe26106c41c6d742"
},{
  "_id": "63445ab0adb5727d4d008357",
  "name": "하월곡동",
  "longitude": 127.0395089,
  "latitude": 37.60417072,
  "guId": "63441c0cbe26106c41c6d742"
},{
  "_id": "63445ab0adb5727d4d008358",
  "name": "장위동",
  "longitude": 127.0499948,
  "latitude": 37.61604132,
  "guId": "63441c0cbe26106c41c6d742"
},{
  "_id": "63445ab0adb5727d4d008359",
  "name": "상월곡동",
  "longitude": 127.0468827,
  "latitude": 37.60606965,
  "guId": "63441c0cbe26106c41c6d742"
},{
  "_id": "63445ab0adb5727d4d00835a",
  "name": "석관동",
  "longitude": 127.0612268,
  "latitude": 37.60790931,
  "guId": "63441c0cbe26106c41c6d742"
},{
  "_id": "63445ab0adb5727d4d00835b",
  "name": "잠실동",
  "longitude": 127.085214,
  "latitude": 37.51124107,
  "guId": "63441c14be26106c41c6d743"
},{
  "_id": "63445ab0adb5727d4d00835c",
  "name": "풍납동",
  "longitude": 127.1149763,
  "latitude": 37.53370746,
  "guId": "63441c14be26106c41c6d743"
},{
  "_id": "63445ab0adb5727d4d00835d",
  "name": "송파동",
  "longitude": 127.1155354,
  "latitude": 37.50487404,
  "guId": "63441c14be26106c41c6d743"
},{
  "_id": "63445ab0adb5727d4d00835e",
  "name": "신천동",
  "longitude": 127.0950694,
  "latitude": 37.52499516,
  "guId": "63441c14be26106c41c6d743"
},{
  "_id": "63445ab0adb5727d4d00835f",
  "name": "석촌동",
  "longitude": 127.1030165,
  "latitude": 37.50317288,
  "guId": "63441c14be26106c41c6d743"
},{
  "_id": "63445ab0adb5727d4d008360",
  "name": "삼전동",
  "longitude": 127.0913061,
  "latitude": 37.50165971,
  "guId": "63441c14be26106c41c6d743"
},{
  "_id": "63445ab0adb5727d4d008361",
  "name": "오금동",
  "longitude": 127.1343221,
  "latitude": 37.50378594,
  "guId": "63441c14be26106c41c6d743"
},{
  "_id": "63445ab0adb5727d4d008362",
  "name": "마천동",
  "longitude": 127.1538691,
  "latitude": 37.49747032,
  "guId": "63441c14be26106c41c6d743"
},{
  "_id": "63445ab0adb5727d4d008363",
  "name": "거여동",
  "longitude": 127.1466421,
  "latitude": 37.49069091,
  "guId": "63441c14be26106c41c6d743"
},{
  "_id": "63445ab0adb5727d4d008364",
  "name": "가락동",
  "longitude": 127.1191525,
  "latitude": 37.49423924,
  "guId": "63441c14be26106c41c6d743"
},{
  "_id": "63445ab0adb5727d4d008365",
  "name": "장지동",
  "longitude": 127.1223503,
  "latitude": 37.48535788,
  "guId": "63441c14be26106c41c6d743"
},{
  "_id": "63445ab0adb5727d4d008366",
  "name": "문정동",
  "longitude": 127.1223503,
  "latitude": 37.48535788,
  "guId": "63441c14be26106c41c6d743"
},{
  "_id": "63445ab0adb5727d4d008367",
  "name": "방이동",
  "longitude": 127.1272223,
  "latitude": 37.51632496,
  "guId": "63441c14be26106c41c6d743"
},{
  "_id": "63445ab0adb5727d4d008368",
  "name": "신정동",
  "longitude": 126.8635173,
  "latitude": 37.51639875,
  "guId": "63441c24be26106c41c6d744"
},{
  "_id": "63445ab0adb5727d4d008369",
  "name": "신월동",
  "longitude": 126.8336006,
  "latitude": 37.52874259,
  "guId": "63441c24be26106c41c6d744"
},{
  "_id": "63445ab0adb5727d4d00836a",
  "name": "목동",
  "longitude": 126.8758257,
  "latitude": 37.53677908,
  "guId": "63441c24be26106c41c6d744"
},{
  "_id": "63445ab0adb5727d4d00836b",
  "name": "영등포동4가",
  "longitude": 126.9045674,
  "latitude": 37.51993973,
  "guId": "63441c31be26106c41c6d745"
},{
  "_id": "63445ab0adb5727d4d00836c",
  "name": "영등포동6가",
  "longitude": 126.9042017,
  "latitude": 37.52027128,
  "guId": "63441c31be26106c41c6d745"
},{
  "_id": "63445ab0adb5727d4d00836d",
  "name": "영등포동7가",
  "longitude": 126.909027,
  "latitude": 37.52263408,
  "guId": "63441c31be26106c41c6d745"
},{
  "_id": "63445ab0adb5727d4d00836e",
  "name": "영등포동5가",
  "longitude": 126.9077919,
  "latitude": 37.51972212,
  "guId": "63441c31be26106c41c6d745"
},{
  "_id": "63445ab0adb5727d4d00836f",
  "name": "영등포동",
  "longitude": 126.9036488,
  "latitude": 37.51785639,
  "guId": "63441c31be26106c41c6d745"
},{
  "_id": "63445ab0adb5727d4d008370",
  "name": "여의도동",
  "longitude": 126.9294419,
  "latitude": 37.52849122,
  "guId": "63441c31be26106c41c6d745"
},{
  "_id": "63445ab0adb5727d4d008371",
  "name": "영등포동8가",
  "longitude": 126.906563,
  "latitude": 37.52623634,
  "guId": "63441c31be26106c41c6d745"
},{
  "_id": "63445ab0adb5727d4d008372",
  "name": "영등포동2가",
  "longitude": 126.9157417,
  "latitude": 37.51846892,
  "guId": "63441c31be26106c41c6d745"
},{
  "_id": "63445ab0adb5727d4d008373",
  "name": "당산동5가",
  "longitude": 126.9012303,
  "latitude": 37.53207814,
  "guId": "63441c31be26106c41c6d745"
},{
  "_id": "63445ab0adb5727d4d008374",
  "name": "당산동",
  "longitude": 126.9062433,
  "latitude": 37.53486793,
  "guId": "63441c31be26106c41c6d745"
},{
  "_id": "63445ab0adb5727d4d008375",
  "name": "도림동",
  "longitude": 126.8993327,
  "latitude": 37.50821049,
  "guId": "63441c31be26106c41c6d745"
},{
  "_id": "63445ab0adb5727d4d008376",
  "name": "영등포동1가",
  "longitude": 126.9167337,
  "latitude": 37.51732478,
  "guId": "63441c31be26106c41c6d745"
},{
  "_id": "63445ab0adb5727d4d008377",
  "name": "당산동6가",
  "longitude": 126.9024908,
  "latitude": 37.53475943,
  "guId": "63441c31be26106c41c6d745"
},{
  "_id": "63445ab0adb5727d4d008378",
  "name": "문래동2가",
  "longitude": 126.8961596,
  "latitude": 37.51322131,
  "guId": "63441c31be26106c41c6d745"
},{
  "_id": "63445ab0adb5727d4d008379",
  "name": "당산동1가",
  "longitude": 126.898403,
  "latitude": 37.52145254,
  "guId": "63441c31be26106c41c6d745"
},{
  "_id": "63445ab0adb5727d4d00837a",
  "name": "문래동1가",
  "longitude": 126.9038206,
  "latitude": 37.51480567,
  "guId": "63441c31be26106c41c6d745"
},{
  "_id": "63445ab0adb5727d4d00837b",
  "name": "영등포동3가",
  "longitude": 126.9080831,
  "latitude": 37.5190476,
  "guId": "63441c31be26106c41c6d745"
},{
  "_id": "63445ab0adb5727d4d00837c",
  "name": "당산동3가",
  "longitude": 126.8973704,
  "latitude": 37.52623042,
  "guId": "63441c31be26106c41c6d745"
},{
  "_id": "63445ab0adb5727d4d00837d",
  "name": "양평동1가",
  "longitude": 126.8886352,
  "latitude": 37.5231417,
  "guId": "63441c31be26106c41c6d745"
},{
  "_id": "63445ab0adb5727d4d00837e",
  "name": "양평동4가",
  "longitude": 126.8962882,
  "latitude": 37.53641663,
  "guId": "63441c31be26106c41c6d745"
},{
  "_id": "63445ab0adb5727d4d00837f",
  "name": "양평동3가",
  "longitude": 126.891955,
  "latitude": 37.52969273,
  "guId": "63441c31be26106c41c6d745"
},{
  "_id": "63445ab0adb5727d4d008380",
  "name": "당산동2가",
  "longitude": 126.8936506,
  "latitude": 37.52243212,
  "guId": "63441c31be26106c41c6d745"
},{
  "_id": "63445ab0adb5727d4d008381",
  "name": "양평동2가",
  "longitude": 126.8836545,
  "latitude": 37.52332332,
  "guId": "63441c31be26106c41c6d745"
},{
  "_id": "63445ab0adb5727d4d008382",
  "name": "양평동6가",
  "longitude": 126.8901876,
  "latitude": 37.54271514,
  "guId": "63441c31be26106c41c6d745"
},{
  "_id": "63445ab0adb5727d4d008383",
  "name": "양평동5가",
  "longitude": 126.8924287,
  "latitude": 37.53891867,
  "guId": "63441c31be26106c41c6d745"
},{
  "_id": "63445ab0adb5727d4d008384",
  "name": "문래동3가",
  "longitude": 126.9015137,
  "latitude": 37.51488635,
  "guId": "63441c31be26106c41c6d745"
},{
  "_id": "63445ab0adb5727d4d008385",
  "name": "당산동4가",
  "longitude": 126.8987178,
  "latitude": 37.52914372,
  "guId": "63441c31be26106c41c6d745"
},{
  "_id": "63445ab0adb5727d4d008386",
  "name": "문래동5가",
  "longitude": 126.8867869,
  "latitude": 37.51512611,
  "guId": "63441c31be26106c41c6d745"
},{
  "_id": "63445ab0adb5727d4d008387",
  "name": "문래동4가",
  "longitude": 126.8917759,
  "latitude": 37.51556768,
  "guId": "63441c31be26106c41c6d745"
},{
  "_id": "63445ab0adb5727d4d008388",
  "name": "양화동",
  "longitude": 126.8879342,
  "latitude": 37.54898511,
  "guId": "63441c31be26106c41c6d745"
},{
  "_id": "63445ab0adb5727d4d008389",
  "name": "문래동6가",
  "longitude": 126.8884993,
  "latitude": 37.51954258,
  "guId": "63441c31be26106c41c6d745"
},{
  "_id": "63445ab0adb5727d4d00838a",
  "name": "대림동",
  "longitude": 126.9012505,
  "latitude": 37.49706665,
  "guId": "63441c31be26106c41c6d745"
},{
  "_id": "63445ab0adb5727d4d00838b",
  "name": "신길동",
  "longitude": 126.9110441,
  "latitude": 37.50590278,
  "guId": "63441c31be26106c41c6d745"
},{
  "_id": "63445ab0adb5727d4d00838c",
  "name": "양평동",
  "longitude": 126.88943,
  "latitude": 37.53722928,
  "guId": "63441c31be26106c41c6d745"
},{
  "_id": "63445ab0adb5727d4d00838d",
  "name": "갈월동",
  "longitude": 126.9715704,
  "latitude": 37.54493279,
  "guId": "63441c40be26106c41c6d746"
},{
  "_id": "63445ab0adb5727d4d00838e",
  "name": "동빙고동",
  "longitude": 126.9957871,
  "latitude": 37.52358498,
  "guId": "63441c40be26106c41c6d746"
},{
  "_id": "63445ab0adb5727d4d00838f",
  "name": "도원동",
  "longitude": 126.9556166,
  "latitude": 37.53878158,
  "guId": "63441c40be26106c41c6d746"
},{
  "_id": "63445ab0adb5727d4d008390",
  "name": "남영동",
  "longitude": 126.9727447,
  "latitude": 37.55151766,
  "guId": "63441c40be26106c41c6d746"
},{
  "_id": "63445ab0adb5727d4d008391",
  "name": "문배동",
  "longitude": 126.9691998,
  "latitude": 37.53714128,
  "guId": "63441c40be26106c41c6d746"
},{
  "_id": "63445ab0adb5727d4d008392",
  "name": "동자동",
  "longitude": 126.9727447,
  "latitude": 37.55151766,
  "guId": "63441c40be26106c41c6d746"
},{
  "_id": "63445ab0adb5727d4d008393",
  "name": "신계동",
  "longitude": 126.9667697,
  "latitude": 37.53542335,
  "guId": "63441c40be26106c41c6d746"
},{
  "_id": "63445ab0adb5727d4d008394",
  "name": "용산동1가",
  "longitude": 126.9766401,
  "latitude": 37.54026756,
  "guId": "63441c40be26106c41c6d746"
},{
  "_id": "63445ab0adb5727d4d008395",
  "name": "용문동",
  "longitude": 126.9556166,
  "latitude": 37.53878158,
  "guId": "63441c40be26106c41c6d746"
},{
  "_id": "63445ab0adb5727d4d008396",
  "name": "신창동",
  "longitude": 126.9549356,
  "latitude": 37.53583888,
  "guId": "63441c40be26106c41c6d746"
},{
  "_id": "63445ab0adb5727d4d008397",
  "name": "용산동3가",
  "longitude": 126.977287,
  "latitude": 37.53216921,
  "guId": "63441c40be26106c41c6d746"
},{
  "_id": "63445ab0adb5727d4d008398",
  "name": "보광동",
  "longitude": 127.0005741,
  "latitude": 37.52688166,
  "guId": "63441c40be26106c41c6d746"
},{
  "_id": "63445ab0adb5727d4d008399",
  "name": "서계동",
  "longitude": 126.9664327,
  "latitude": 37.55258491,
  "guId": "63441c40be26106c41c6d746"
},{
  "_id": "63445ab0adb5727d4d00839a",
  "name": "용산동2가",
  "longitude": 126.9837293,
  "latitude": 37.54305503,
  "guId": "63441c40be26106c41c6d746"
},{
  "_id": "63445ab0adb5727d4d00839b",
  "name": "산천동",
  "longitude": 126.9511189,
  "latitude": 37.53570645,
  "guId": "63441c40be26106c41c6d746"
},{
  "_id": "63445ab0adb5727d4d00839c",
  "name": "원효로2가",
  "longitude": 126.9635624,
  "latitude": 37.53636782,
  "guId": "63441c40be26106c41c6d746"
},{
  "_id": "63445ab0adb5727d4d00839d",
  "name": "이촌동",
  "longitude": 126.9664108,
  "latitude": 37.51877521,
  "guId": "63441c40be26106c41c6d746"
},{
  "_id": "63445ab0adb5727d4d00839e",
  "name": "원효로4가",
  "longitude": 126.9501783,
  "latitude": 37.5329181,
  "guId": "63441c40be26106c41c6d746"
},{
  "_id": "63445ab0adb5727d4d00839f",
  "name": "원효로3가",
  "longitude": 126.9578139,
  "latitude": 37.53434868,
  "guId": "63441c40be26106c41c6d746"
},{
  "_id": "63445ab0adb5727d4d0083a0",
  "name": "주성동",
  "longitude": 127.0001493,
  "latitude": 37.52156816,
  "guId": "63441c40be26106c41c6d746"
},{
  "_id": "63445ab0adb5727d4d0083a1",
  "name": "용산동4가",
  "longitude": 126.9855273,
  "latitude": 37.53059144,
  "guId": "63441c40be26106c41c6d746"
},{
  "_id": "63445ab0adb5727d4d0083a2",
  "name": "서빙고동",
  "longitude": 126.9957871,
  "latitude": 37.52358498,
  "guId": "63441c40be26106c41c6d746"
},{
  "_id": "63445ab0adb5727d4d0083a3",
  "name": "용산동6가",
  "longitude": 126.9841235,
  "latitude": 37.5168161,
  "guId": "63441c40be26106c41c6d746"
},{
  "_id": "63445ab0adb5727d4d0083a4",
  "name": "이태원동",
  "longitude": 126.991128,
  "latitude": 37.53884125,
  "guId": "63441c40be26106c41c6d746"
},{
  "_id": "63445ab0adb5727d4d0083a5",
  "name": "용산동5가",
  "longitude": 126.9748424,
  "latitude": 37.52557953,
  "guId": "63441c40be26106c41c6d746"
},{
  "_id": "63445ab0adb5727d4d0083a6",
  "name": "한강로1가",
  "longitude": 126.9724387,
  "latitude": 37.5387899,
  "guId": "63441c40be26106c41c6d746"
},{
  "_id": "63445ab0adb5727d4d0083a7",
  "name": "한남동",
  "longitude": 127.0063494,
  "latitude": 37.53746041,
  "guId": "63441c40be26106c41c6d746"
},{
  "_id": "63445ab0adb5727d4d0083a8",
  "name": "한강로3가",
  "longitude": 126.9639227,
  "latitude": 37.53373866,
  "guId": "63441c40be26106c41c6d746"
},{
  "_id": "63445ab0adb5727d4d0083a9",
  "name": "한강로2가",
  "longitude": 126.9682528,
  "latitude": 37.53265556,
  "guId": "63441c40be26106c41c6d746"
},{
  "_id": "63445ab0adb5727d4d0083aa",
  "name": "후암동",
  "longitude": 126.9815742,
  "latitude": 37.55042469,
  "guId": "63441c40be26106c41c6d746"
},{
  "_id": "63445ab0adb5727d4d0083ab",
  "name": "청암동",
  "longitude": 126.9462133,
  "latitude": 37.53425046,
  "guId": "63441c40be26106c41c6d746"
},{
  "_id": "63445ab0adb5727d4d0083ac",
  "name": "원효로1가",
  "longitude": 126.967354,
  "latitude": 37.53986367,
  "guId": "63441c40be26106c41c6d746"
},{
  "_id": "63445ab0adb5727d4d0083ad",
  "name": "효창동",
  "longitude": 126.9597807,
  "latitude": 37.5435614,
  "guId": "63441c40be26106c41c6d746"
},{
  "_id": "63445ab0adb5727d4d0083ae",
  "name": "청파동2가",
  "longitude": 126.9666093,
  "latitude": 37.54718105,
  "guId": "63441c40be26106c41c6d746"
},{
  "_id": "63445ab0adb5727d4d0083af",
  "name": "청파동1가",
  "longitude": 126.9681748,
  "latitude": 37.55003795,
  "guId": "63441c40be26106c41c6d746"
},{
  "_id": "63445ab0adb5727d4d0083b0",
  "name": "청파동3가",
  "longitude": 126.9707089,
  "latitude": 37.5445539,
  "guId": "63441c40be26106c41c6d746"
},{
  "_id": "63445ab0adb5727d4d0083b1",
  "name": "불광동",
  "longitude": 126.9354269,
  "latitude": 37.61910738,
  "guId": "63441c4cbe26106c41c6d747"
},{
  "_id": "63445ab0adb5727d4d0083b2",
  "name": "역촌동",
  "longitude": 126.9151674,
  "latitude": 37.60507371,
  "guId": "63441c4cbe26106c41c6d747"
},{
  "_id": "63445ab0adb5727d4d0083b3",
  "name": "신사동",
  "longitude": 126.9083679,
  "latitude": 37.59581227,
  "guId": "63441c4cbe26106c41c6d747"
},{
  "_id": "63445ab0adb5727d4d0083b4",
  "name": "수색동",
  "longitude": 126.8950292,
  "latitude": 37.58497344,
  "guId": "63441c4cbe26106c41c6d747"
},{
  "_id": "63445ab0adb5727d4d0083b5",
  "name": "증산동",
  "longitude": 126.9055893,
  "latitude": 37.58317152,
  "guId": "63441c4cbe26106c41c6d747"
},{
  "_id": "63445ab0adb5727d4d0083b6",
  "name": "갈현동",
  "longitude": 126.9129476,
  "latitude": 37.62105269,
  "guId": "63441c4cbe26106c41c6d747"
},{
  "_id": "63445ab0adb5727d4d0083b7",
  "name": "응암동",
  "longitude": 126.9214555,
  "latitude": 37.59263514,
  "guId": "63441c4cbe26106c41c6d747"
},{
  "_id": "63445ab0adb5727d4d0083b8",
  "name": "녹번동",
  "longitude": 126.9319127,
  "latitude": 37.60424909,
  "guId": "63441c4cbe26106c41c6d747"
},{
  "_id": "63445ab0adb5727d4d0083b9",
  "name": "구산동",
  "longitude": 126.9082417,
  "latitude": 37.61217081,
  "guId": "63441c4cbe26106c41c6d747"
},{
  "_id": "63445ab0adb5727d4d0083ba",
  "name": "진관동",
  "longitude": 126.9354166,
  "latitude": 37.64228785,
  "guId": "63441c4cbe26106c41c6d747"
},{
  "_id": "63445ab0adb5727d4d0083bb",
  "name": "대조동",
  "longitude": 126.9226528,
  "latitude": 37.61263416,
  "guId": "63441c4cbe26106c41c6d747"
},{
  "_id": "63445ab0adb5727d4d0083bc",
  "name": "계동",
  "longitude": 126.987006,
  "latitude": 37.58290692,
  "guId": "63441c55be26106c41c6d748"
},{
  "_id": "63445ab0adb5727d4d0083bd",
  "name": "관철동",
  "longitude": 126.9857741,
  "latitude": 37.56921711,
  "guId": "63441c55be26106c41c6d748"
},{
  "_id": "63445ab0adb5727d4d0083be",
  "name": "관수동",
  "longitude": 126.9904307,
  "latitude": 37.5690552,
  "guId": "63441c55be26106c41c6d748"
},{
  "_id": "63445ab0adb5727d4d0083bf",
  "name": "공평동",
  "longitude": 126.9832121,
  "latitude": 37.57131117,
  "guId": "63441c55be26106c41c6d748"
},{
  "_id": "63445ab0adb5727d4d0083c0",
  "name": "낙원동",
  "longitude": 126.9885962,
  "latitude": 37.57254236,
  "guId": "63441c55be26106c41c6d748"
},{
  "_id": "63445ab0adb5727d4d0083c1",
  "name": "교남동",
  "longitude": 126.9670956,
  "latitude": 37.56768204,
  "guId": "63441c55be26106c41c6d748"
},{
  "_id": "63445ab0adb5727d4d0083c2",
  "name": "관훈동",
  "longitude": 126.984942,
  "latitude": 37.57415044,
  "guId": "63441c55be26106c41c6d748"
},{
  "_id": "63445ab0adb5727d4d0083c3",
  "name": "누상동",
  "longitude": 126.9634002,
  "latitude": 37.58022966,
  "guId": "63441c55be26106c41c6d748"
},{
  "_id": "63445ab0adb5727d4d0083c4",
  "name": "견지동",
  "longitude": 126.9832211,
  "latitude": 37.57372618,
  "guId": "63441c55be26106c41c6d748"
},{
  "_id": "63445ab0adb5727d4d0083c5",
  "name": "가희동",
  "longitude": 126.9667806,
  "latitude": 37.59908121,
  "guId": "63441c55be26106c41c6d748"
},{
  "_id": "63445ab0adb5727d4d0083c6",
  "name": "내수동",
  "longitude": 126.9720247,
  "latitude": 37.57336835,
  "guId": "63441c55be26106c41c6d748"
},{
  "_id": "63445ab0adb5727d4d0083c7",
  "name": "내자동",
  "longitude": 126.9716003,
  "latitude": 37.57531442,
  "guId": "63441c55be26106c41c6d748"
},{
  "_id": "63445ab0adb5727d4d0083c8",
  "name": "명륜2가",
  "longitude": 126.9988849,
  "latitude": 37.58463718,
  "guId": "63441c55be26106c41c6d748"
},{
  "_id": "63445ab0adb5727d4d0083c9",
  "name": "교북동",
  "longitude": 126.961767,
  "latitude": 37.57139759,
  "guId": "63441c55be26106c41c6d748"
},{
  "_id": "63445ab0adb5727d4d0083ca",
  "name": "당주동",
  "longitude": 126.9737666,
  "latitude": 37.5715855,
  "guId": "63441c55be26106c41c6d748"
},{
  "_id": "63445ab0adb5727d4d0083cb",
  "name": "누하동",
  "longitude": 126.968602,
  "latitude": 37.57935701,
  "guId": "63441c55be26106c41c6d748"
},{
  "_id": "63445ab0adb5727d4d0083cc",
  "name": "묘동",
  "longitude": 126.9916844,
  "latitude": 37.57254922,
  "guId": "63441c55be26106c41c6d748"
},{
  "_id": "63445ab0adb5727d4d0083cd",
  "name": "궁정동",
  "longitude": 126.9730518,
  "latitude": 37.58489232,
  "guId": "63441c55be26106c41c6d748"
},{
  "_id": "63445ab0adb5727d4d0083ce",
  "name": "구기동",
  "longitude": 126.9574515,
  "latitude": 37.61799022,
  "guId": "63441c55be26106c41c6d748"
},{
  "_id": "63445ab0adb5727d4d0083cf",
  "name": "명륜3가",
  "longitude": 126.994967,
  "latitude": 37.58730494,
  "guId": "63441c55be26106c41c6d748"
},{
  "_id": "63445ab0adb5727d4d0083d0",
  "name": "명륜4가",
  "longitude": 126.9997021,
  "latitude": 37.58236924,
  "guId": "63441c55be26106c41c6d748"
},{
  "_id": "63445ab0adb5727d4d0083d1",
  "name": "경운동",
  "longitude": 126.9861925,
  "latitude": 37.57524356,
  "guId": "63441c55be26106c41c6d748"
},{
  "_id": "63445ab0adb5727d4d0083d2",
  "name": "서린동",
  "longitude": 126.980332,
  "latitude": 37.56947842,
  "guId": "63441c55be26106c41c6d748"
},{
  "_id": "63445ab0adb5727d4d0083d3",
  "name": "도렴동",
  "longitude": 126.9746282,
  "latitude": 37.5726868,
  "guId": "63441c55be26106c41c6d748"
},{
  "_id": "63445ab0adb5727d4d0083d4",
  "name": "봉익동",
  "longitude": 126.992888,
  "latitude": 37.57238511,
  "guId": "63441c55be26106c41c6d748"
},{
  "_id": "63445ab0adb5727d4d0083d5",
  "name": "무악동",
  "longitude": 126.9587839,
  "latitude": 37.57680168,
  "guId": "63441c55be26106c41c6d748"
},{
  "_id": "63445ab0adb5727d4d0083d6",
  "name": "송월동",
  "longitude": 126.9651246,
  "latitude": 37.57017374,
  "guId": "63441c55be26106c41c6d748"
},{
  "_id": "63445ab0adb5727d4d0083d7",
  "name": "동숭동",
  "longitude": 127.0047707,
  "latitude": 37.58161316,
  "guId": "63441c55be26106c41c6d748"
},{
  "_id": "63445ab0adb5727d4d0083d8",
  "name": "돈의동",
  "longitude": 126.9904602,
  "latitude": 37.57200933,
  "guId": "63441c55be26106c41c6d748"
},{
  "_id": "63445ab0adb5727d4d0083d9",
  "name": "세종로",
  "longitude": 126.9768621,
  "latitude": 37.57948691,
  "guId": "63441c55be26106c41c6d748"
},{
  "_id": "63445ab0adb5727d4d0083da",
  "name": "신영동",
  "longitude": 126.9616078,
  "latitude": 37.60304252,
  "guId": "63441c55be26106c41c6d748"
},{
  "_id": "63445ab0adb5727d4d0083db",
  "name": "권농동",
  "longitude": 126.9912857,
  "latitude": 37.57609012,
  "guId": "63441c55be26106c41c6d748"
},{
  "_id": "63445ab0adb5727d4d0083dc",
  "name": "소격동",
  "longitude": 126.9810908,
  "latitude": 37.57976226,
  "guId": "63441c55be26106c41c6d748"
},{
  "_id": "63445ab0adb5727d4d0083dd",
  "name": "부암동",
  "longitude": 126.9616078,
  "latitude": 37.60304252,
  "guId": "63441c55be26106c41c6d748"
},{
  "_id": "63445ab0adb5727d4d0083de",
  "name": "송현동",
  "longitude": 126.9817496,
  "latitude": 37.57703411,
  "guId": "63441c55be26106c41c6d748"
},{
  "_id": "63445ab0adb5727d4d0083df",
  "name": "수송동",
  "longitude": 126.9803182,
  "latitude": 37.57385425,
  "guId": "63441c55be26106c41c6d748"
},{
  "_id": "63445ab0adb5727d4d0083e0",
  "name": "연지동",
  "longitude": 126.9999467,
  "latitude": 37.57376615,
  "guId": "63441c55be26106c41c6d748"
},{
  "_id": "63445ab0adb5727d4d0083e1",
  "name": "사직동",
  "longitude": 126.9741172,
  "latitude": 37.57037275,
  "guId": "63441c55be26106c41c6d748"
},{
  "_id": "63445ab0adb5727d4d0083e2",
  "name": "사간동",
  "longitude": 126.9803027,
  "latitude": 37.57722674,
  "guId": "63441c55be26106c41c6d748"
},{
  "_id": "63445ab0adb5727d4d0083e3",
  "name": "안국동",
  "longitude": 126.983524,
  "latitude": 37.57747082,
  "guId": "63441c55be26106c41c6d748"
},{
  "_id": "63445ab0adb5727d4d0083e4",
  "name": "이화동",
  "longitude": 126.9994743,
  "latitude": 37.57852163,
  "guId": "63441c55be26106c41c6d748"
},{
  "_id": "63445ab0adb5727d4d0083e5",
  "name": "명륜1가",
  "longitude": 126.9976869,
  "latitude": 37.58895081,
  "guId": "63441c55be26106c41c6d748"
},{
  "_id": "63445ab0adb5727d4d0083e6",
  "name": "연건동",
  "longitude": 126.9994743,
  "latitude": 37.57852163,
  "guId": "63441c55be26106c41c6d748"
},{
  "_id": "63445ab0adb5727d4d0083e7",
  "name": "숭인동",
  "longitude": 127.019356,
  "latitude": 37.57665755,
  "guId": "63441c55be26106c41c6d748"
},{
  "_id": "63445ab0adb5727d4d0083e8",
  "name": "옥인동",
  "longitude": 126.9623248,
  "latitude": 37.58355431,
  "guId": "63441c55be26106c41c6d748"
},{
  "_id": "63445ab0adb5727d4d0083e9",
  "name": "예지동",
  "longitude": 126.9986235,
  "latitude": 37.56950337,
  "guId": "63441c55be26106c41c6d748"
},{
  "_id": "63445ab0adb5727d4d0083ea",
  "name": "인의동",
  "longitude": 126.9978254,
  "latitude": 37.57254882,
  "guId": "63441c55be26106c41c6d748"
},{
  "_id": "63445ab0adb5727d4d0083eb",
  "name": "신문로1가",
  "longitude": 126.9741172,
  "latitude": 37.57037275,
  "guId": "63441c55be26106c41c6d748"
},{
  "_id": "63445ab0adb5727d4d0083ec",
  "name": "신교동",
  "longitude": 126.968017,
  "latitude": 37.5844364,
  "guId": "63441c55be26106c41c6d748"
},{
  "_id": "63445ab0adb5727d4d0083ed",
  "name": "익선동",
  "longitude": 126.9896753,
  "latitude": 37.57424383,
  "guId": "63441c55be26106c41c6d748"
},{
  "_id": "63445ab0adb5727d4d0083ee",
  "name": "삼청동",
  "longitude": 126.9810908,
  "latitude": 37.57976226,
  "guId": "63441c55be26106c41c6d748"
},{
  "_id": "63445ab0adb5727d4d0083ef",
  "name": "인사동",
  "longitude": 126.9858807,
  "latitude": 37.5720641,
  "guId": "63441c55be26106c41c6d748"
},{
  "_id": "63445ab0adb5727d4d0083f0",
  "name": "와룡동",
  "longitude": 126.9927801,
  "latitude": 37.58091591,
  "guId": "63441c55be26106c41c6d748"
},{
  "_id": "63445ab0adb5727d4d0083f1",
  "name": "종로4가",
  "longitude": 126.9768621,
  "latitude": 37.57948691,
  "guId": "63441c55be26106c41c6d748"
},{
  "_id": "63445ab0adb5727d4d0083f2",
  "name": "재동",
  "longitude": 126.9853335,
  "latitude": 37.5781571,
  "guId": "63441c55be26106c41c6d748"
},{
  "_id": "63445ab0adb5727d4d0083f3",
  "name": "장사동",
  "longitude": 126.9940881,
  "latitude": 37.56923293,
  "guId": "63441c55be26106c41c6d748"
},{
  "_id": "63445ab0adb5727d4d0083f4",
  "name": "중학동",
  "longitude": 126.9797045,
  "latitude": 37.57519459,
  "guId": "63441c55be26106c41c6d748"
},{
  "_id": "63445ab0adb5727d4d0083f5",
  "name": "원남동",
  "longitude": 126.9975527,
  "latitude": 37.57548596,
  "guId": "63441c55be26106c41c6d748"
},{
  "_id": "63445ab0adb5727d4d0083f6",
  "name": "운니동",
  "longitude": 126.9882754,
  "latitude": 37.57634399,
  "guId": "63441c55be26106c41c6d748"
},{
  "_id": "63445ab0adb5727d4d0083f7",
  "name": "종로5가",
  "longitude": 126.9999467,
  "latitude": 37.57376615,
  "guId": "63441c55be26106c41c6d748"
},{
  "_id": "63445ab0adb5727d4d0083f8",
  "name": "종로6가",
  "longitude": 126.9999467,
  "latitude": 37.57376615,
  "guId": "63441c55be26106c41c6d748"
},{
  "_id": "63445ab0adb5727d4d0083f9",
  "name": "신문로2가",
  "longitude": 126.9691115,
  "latitude": 37.57102547,
  "guId": "63441c55be26106c41c6d748"
},{
  "_id": "63445ab0adb5727d4d0083fa",
  "name": "적선동",
  "longitude": 126.9737761,
  "latitude": 37.57527955,
  "guId": "63441c55be26106c41c6d748"
},{
  "_id": "63445ab0adb5727d4d0083fb",
  "name": "통의동",
  "longitude": 126.9728825,
  "latitude": 37.57799113,
  "guId": "63441c55be26106c41c6d748"
},{
  "_id": "63445ab0adb5727d4d0083fc",
  "name": "창신동",
  "longitude": 127.0119932,
  "latitude": 37.57599763,
  "guId": "63441c55be26106c41c6d748"
},{
  "_id": "63445ab0adb5727d4d0083fd",
  "name": "창성동",
  "longitude": 126.9724002,
  "latitude": 37.5805725,
  "guId": "63441c55be26106c41c6d748"
},{
  "_id": "63445ab0adb5727d4d0083fe",
  "name": "종로2가",
  "longitude": 126.9978341,
  "latitude": 37.57068475,
  "guId": "63441c55be26106c41c6d748"
},{
  "_id": "63445ab0adb5727d4d0083ff",
  "name": "평동",
  "longitude": 126.9670956,
  "latitude": 37.56768204,
  "guId": "63441c55be26106c41c6d748"
},{
  "_id": "63445ab0adb5727d4d008400",
  "name": "종로1가",
  "longitude": 126.9978341,
  "latitude": 37.57068475,
  "guId": "63441c55be26106c41c6d748"
},{
  "_id": "63445ab0adb5727d4d008401",
  "name": "통인동",
  "longitude": 126.9702933,
  "latitude": 37.57981132,
  "guId": "63441c55be26106c41c6d748"
},{
  "_id": "63445ab0adb5727d4d008402",
  "name": "팔판동",
  "longitude": 126.9809896,
  "latitude": 37.58277536,
  "guId": "63441c55be26106c41c6d748"
},{
  "_id": "63445ab0adb5727d4d008403",
  "name": "원서동",
  "longitude": 126.9882571,
  "latitude": 37.58414396,
  "guId": "63441c55be26106c41c6d748"
},{
  "_id": "63445ab0adb5727d4d008404",
  "name": "청운동",
  "longitude": 126.9697706,
  "latitude": 37.58904325,
  "guId": "63441c55be26106c41c6d748"
},{
  "_id": "63445ab0adb5727d4d008405",
  "name": "필운동",
  "longitude": 126.9689898,
  "latitude": 37.57687333,
  "guId": "63441c55be26106c41c6d748"
},{
  "_id": "63445ab0adb5727d4d008406",
  "name": "화동",
  "longitude": 126.9825454,
  "latitude": 37.58072241,
  "guId": "63441c55be26106c41c6d748"
},{
  "_id": "63445ab0adb5727d4d008407",
  "name": "평창동",
  "longitude": 126.9574515,
  "latitude": 37.61799022,
  "guId": "63441c55be26106c41c6d748"
},{
  "_id": "63445ab0adb5727d4d008408",
  "name": "훈정동",
  "longitude": 126.994306,
  "latitude": 37.57420715,
  "guId": "63441c55be26106c41c6d748"
},{
  "_id": "63445ab0adb5727d4d008409",
  "name": "체부동",
  "longitude": 126.9709015,
  "latitude": 37.57786012,
  "guId": "63441c55be26106c41c6d748"
},{
  "_id": "63445ab0adb5727d4d00840a",
  "name": "청진동",
  "longitude": 126.9801709,
  "latitude": 37.57154991,
  "guId": "63441c55be26106c41c6d748"
},{
  "_id": "63445ab0adb5727d4d00840b",
  "name": "효제동",
  "longitude": 127.0032009,
  "latitude": 37.57335779,
  "guId": "63441c55be26106c41c6d748"
},{
  "_id": "63445ab0adb5727d4d00840c",
  "name": "효자동",
  "longitude": 126.9719338,
  "latitude": 37.58271304,
  "guId": "63441c55be26106c41c6d748"
},{
  "_id": "63445ab0adb5727d4d00840d",
  "name": "종로3가",
  "longitude": 126.9978341,
  "latitude": 37.57068475,
  "guId": "63441c55be26106c41c6d748"
},{
  "_id": "63445ab0adb5727d4d00840e",
  "name": "행촌동",
  "longitude": 126.9625874,
  "latitude": 37.57451392,
  "guId": "63441c55be26106c41c6d748"
},{
  "_id": "63445ab0adb5727d4d00840f",
  "name": "홍지동",
  "longitude": 126.9563779,
  "latitude": 37.60057092,
  "guId": "63441c55be26106c41c6d748"
},{
  "_id": "63445ab0adb5727d4d008410",
  "name": "혜화동",
  "longitude": 126.9976869,
  "latitude": 37.58895081,
  "guId": "63441c55be26106c41c6d748"
},{
  "_id": "63445ab0adb5727d4d008411",
  "name": "충신동",
  "longitude": 127.0059595,
  "latitude": 37.57477282,
  "guId": "63441c55be26106c41c6d748"
},{
  "_id": "63445ab0adb5727d4d008412",
  "name": "홍파동",
  "longitude": 126.9637811,
  "latitude": 37.57116293,
  "guId": "63441c55be26106c41c6d748"
},{
  "_id": "63445ab0adb5727d4d008413",
  "name": "광희동2가",
  "longitude": 127.0071625,
  "latitude": 37.56478999,
  "guId": "63441c64be26106c41c6d749"
},{
  "_id": "63445ab0adb5727d4d008414",
  "name": "남대문로5가",
  "longitude": 126.9747284,
  "latitude": 37.5563685,
  "guId": "63441c64be26106c41c6d749"
},{
  "_id": "63445ab0adb5727d4d008415",
  "name": "광희동1가",
  "longitude": 127.0033632,
  "latitude": 37.56537106,
  "guId": "63441c64be26106c41c6d749"
},{
  "_id": "63445ab0adb5727d4d008416",
  "name": "남산동3가",
  "longitude": 126.9875333,
  "latitude": 37.55998764,
  "guId": "63441c64be26106c41c6d749"
},{
  "_id": "63445ab0adb5727d4d008417",
  "name": "남산동1가",
  "longitude": 126.9843327,
  "latitude": 37.55917989,
  "guId": "63441c64be26106c41c6d749"
},{
  "_id": "63445ab0adb5727d4d008418",
  "name": "남산동2가",
  "longitude": 126.9865092,
  "latitude": 37.55833199,
  "guId": "63441c64be26106c41c6d749"
},{
  "_id": "63445ab0adb5727d4d008419",
  "name": "남대문로1가",
  "longitude": 126.983023,
  "latitude": 37.56760004,
  "guId": "63441c64be26106c41c6d749"
},{
  "_id": "63445ab0adb5727d4d00841a",
  "name": "남대문로3가",
  "longitude": 126.9802042,
  "latitude": 37.56167077,
  "guId": "63441c64be26106c41c6d749"
},{
  "_id": "63445ab0adb5727d4d00841b",
  "name": "남대문로2가",
  "longitude": 126.9821056,
  "latitude": 37.56386032,
  "guId": "63441c64be26106c41c6d749"
},{
  "_id": "63445ab0adb5727d4d00841c",
  "name": "남학동",
  "longitude": 126.9908493,
  "latitude": 37.56053181,
  "guId": "63441c64be26106c41c6d749"
},{
  "_id": "63445ab0adb5727d4d00841d",
  "name": "명동2가",
  "longitude": 126.9857909,
  "latitude": 37.56384171,
  "guId": "63441c64be26106c41c6d749"
},{
  "_id": "63445ab0adb5727d4d00841e",
  "name": "남창동",
  "longitude": 126.9771262,
  "latitude": 37.55806072,
  "guId": "63441c64be26106c41c6d749"
},{
  "_id": "63445ab0adb5727d4d00841f",
  "name": "묵정동",
  "longitude": 127.0005333,
  "latitude": 37.56143269,
  "guId": "63441c64be26106c41c6d749"
},{
  "_id": "63445ab0adb5727d4d008420",
  "name": "무교동",
  "longitude": 126.9790643,
  "latitude": 37.56805959,
  "guId": "63441c64be26106c41c6d749"
},{
  "_id": "63445ab0adb5727d4d008421",
  "name": "무학동",
  "longitude": 127.0151859,
  "latitude": 37.56424067,
  "guId": "63441c64be26106c41c6d749"
},{
  "_id": "63445ab0adb5727d4d008422",
  "name": "다동",
  "longitude": 126.9811617,
  "latitude": 37.56784624,
  "guId": "63441c64be26106c41c6d749"
},{
  "_id": "63445ab0adb5727d4d008423",
  "name": "만리동1가",
  "longitude": 126.9675782,
  "latitude": 37.55588575,
  "guId": "63441c64be26106c41c6d749"
},{
  "_id": "63445ab0adb5727d4d008424",
  "name": "만리동2가",
  "longitude": 126.9640755,
  "latitude": 37.55428201,
  "guId": "63441c64be26106c41c6d749"
},{
  "_id": "63445ab0adb5727d4d008425",
  "name": "봉래동1가",
  "longitude": 126.9726368,
  "latitude": 37.55890768,
  "guId": "63441c64be26106c41c6d749"
},{
  "_id": "63445ab0adb5727d4d008426",
  "name": "남대문로4가",
  "longitude": 126.9745563,
  "latitude": 37.56069485,
  "guId": "63441c64be26106c41c6d749"
},{
  "_id": "63445ab0adb5727d4d008427",
  "name": "서소문동",
  "longitude": 126.9735267,
  "latitude": 37.56291665,
  "guId": "63441c64be26106c41c6d749"
},{
  "_id": "63445ab0adb5727d4d008428",
  "name": "방산동",
  "longitude": 127.0030177,
  "latitude": 37.56858463,
  "guId": "63441c64be26106c41c6d749"
},{
  "_id": "63445ab0adb5727d4d008429",
  "name": "소공동",
  "longitude": 126.9733001,
  "latitude": 37.56614563,
  "guId": "63441c64be26106c41c6d749"
},{
  "_id": "63445ab0adb5727d4d00842a",
  "name": "수하동",
  "longitude": 126.984805,
  "latitude": 37.56741096,
  "guId": "63441c64be26106c41c6d749"
},{
  "_id": "63445ab0adb5727d4d00842b",
  "name": "수표동",
  "longitude": 126.9894001,
  "latitude": 37.5674667,
  "guId": "63441c64be26106c41c6d749"
},{
  "_id": "63445ab0adb5727d4d00842c",
  "name": "봉래동2가",
  "longitude": 126.9706895,
  "latitude": 37.55672601,
  "guId": "63441c64be26106c41c6d749"
},{
  "_id": "63445ab0adb5727d4d00842d",
  "name": "북창동",
  "longitude": 126.978261,
  "latitude": 37.56249027,
  "guId": "63441c64be26106c41c6d749"
},{
  "_id": "63445ab0adb5727d4d00842e",
  "name": "산림동",
  "longitude": 126.9961922,
  "latitude": 37.56760726,
  "guId": "63441c64be26106c41c6d749"
},{
  "_id": "63445ab0adb5727d4d00842f",
  "name": "명동1가",
  "longitude": 126.9861109,
  "latitude": 37.56488123,
  "guId": "63441c64be26106c41c6d749"
},{
  "_id": "63445ab0adb5727d4d008430",
  "name": "신당동",
  "longitude": 127.0151859,
  "latitude": 37.56424067,
  "guId": "63441c64be26106c41c6d749"
},{
  "_id": "63445ab0adb5727d4d008431",
  "name": "을지로1가",
  "longitude": 126.9803332,
  "latitude": 37.5658865,
  "guId": "63441c64be26106c41c6d749"
},{
  "_id": "63445ab0adb5727d4d008432",
  "name": "순화동",
  "longitude": 126.9707478,
  "latitude": 37.56233309,
  "guId": "63441c64be26106c41c6d749"
},{
  "_id": "63445ab0adb5727d4d008433",
  "name": "을지로2가",
  "longitude": 126.9853036,
  "latitude": 37.56572015,
  "guId": "63441c64be26106c41c6d749"
},{
  "_id": "63445ab0adb5727d4d008434",
  "name": "을지로4가",
  "longitude": 126.9956494,
  "latitude": 37.56681938,
  "guId": "63441c64be26106c41c6d749"
},{
  "_id": "63445ab0adb5727d4d008435",
  "name": "쌍림동",
  "longitude": 127.0045648,
  "latitude": 37.56375517,
  "guId": "63441c64be26106c41c6d749"
},{
  "_id": "63445ab0adb5727d4d008436",
  "name": "을지로3가",
  "longitude": 126.9907139,
  "latitude": 37.56673257,
  "guId": "63441c64be26106c41c6d749"
},{
  "_id": "63445ab0adb5727d4d008437",
  "name": "예관동",
  "longitude": 126.9982726,
  "latitude": 37.56407148,
  "guId": "63441c64be26106c41c6d749"
},{
  "_id": "63445ab0adb5727d4d008438",
  "name": "예장동",
  "longitude": 126.9898829,
  "latitude": 37.55516129,
  "guId": "63441c64be26106c41c6d749"
},{
  "_id": "63445ab0adb5727d4d008439",
  "name": "삼각동",
  "longitude": 126.9843093,
  "latitude": 37.56794142,
  "guId": "63441c64be26106c41c6d749"
},{
  "_id": "63445ab0adb5727d4d00843a",
  "name": "을지로6가",
  "longitude": 127.0065771,
  "latitude": 37.56749629,
  "guId": "63441c64be26106c41c6d749"
},{
  "_id": "63445ab0adb5727d4d00843b",
  "name": "입정동",
  "longitude": 126.9927627,
  "latitude": 37.56767557,
  "guId": "63441c64be26106c41c6d749"
},{
  "_id": "63445ab0adb5727d4d00843c",
  "name": "을지로5가",
  "longitude": 127.00076,
  "latitude": 37.56704508,
  "guId": "63441c64be26106c41c6d749"
},{
  "_id": "63445ab0adb5727d4d00843d",
  "name": "인현동2가",
  "longitude": 126.9960802,
  "latitude": 37.56417056,
  "guId": "63441c64be26106c41c6d749"
},{
  "_id": "63445ab0adb5727d4d00843e",
  "name": "장충동1가",
  "longitude": 127.0065272,
  "latitude": 37.5636387,
  "guId": "63441c64be26106c41c6d749"
},{
  "_id": "63445ab0adb5727d4d00843f",
  "name": "을지로7가",
  "longitude": 127.0097585,
  "latitude": 37.56642533,
  "guId": "63441c64be26106c41c6d749"
},{
  "_id": "63445ab0adb5727d4d008440",
  "name": "장교동",
  "longitude": 126.9868258,
  "latitude": 37.56745554,
  "guId": "63441c64be26106c41c6d749"
},{
  "_id": "63445ab0adb5727d4d008441",
  "name": "의주로1가",
  "longitude": 126.968646,
  "latitude": 37.5636841,
  "guId": "63441c64be26106c41c6d749"
},{
  "_id": "63445ab0adb5727d4d008442",
  "name": "의주로2가",
  "longitude": 126.9695579,
  "latitude": 37.56066436,
  "guId": "63441c64be26106c41c6d749"
},{
  "_id": "63445ab0adb5727d4d008443",
  "name": "오장동",
  "longitude": 127.000704,
  "latitude": 37.56445824,
  "guId": "63441c64be26106c41c6d749"
},{
  "_id": "63445ab0adb5727d4d008444",
  "name": "저동1가",
  "longitude": 126.9878802,
  "latitude": 37.56422745,
  "guId": "63441c64be26106c41c6d749"
},{
  "_id": "63445ab0adb5727d4d008445",
  "name": "초동",
  "longitude": 126.992011,
  "latitude": 37.56455077,
  "guId": "63441c64be26106c41c6d749"
},{
  "_id": "63445ab0adb5727d4d008446",
  "name": "장충동2가",
  "longitude": 127.0059259,
  "latitude": 37.56190439,
  "guId": "63441c64be26106c41c6d749"
},{
  "_id": "63445ab0adb5727d4d008447",
  "name": "중림동",
  "longitude": 126.9640755,
  "latitude": 37.55428201,
  "guId": "63441c64be26106c41c6d749"
},{
  "_id": "63445ab0adb5727d4d008448",
  "name": "충무로2가",
  "longitude": 126.9877134,
  "latitude": 37.56177433,
  "guId": "63441c64be26106c41c6d749"
},{
  "_id": "63445ab0adb5727d4d008449",
  "name": "저동2가",
  "longitude": 126.989662,
  "latitude": 37.5643056,
  "guId": "63441c64be26106c41c6d749"
},{
  "_id": "63445ab0adb5727d4d00844a",
  "name": "충무로1가",
  "longitude": 126.9826502,
  "latitude": 37.56103229,
  "guId": "63441c64be26106c41c6d749"
},{
  "_id": "63445ab0adb5727d4d00844b",
  "name": "정동",
  "longitude": 126.9733001,
  "latitude": 37.56614563,
  "guId": "63441c64be26106c41c6d749"
},{
  "_id": "63445ab0adb5727d4d00844c",
  "name": "주교동",
  "longitude": 126.9992014,
  "latitude": 37.56826863,
  "guId": "63441c64be26106c41c6d749"
},{
  "_id": "63445ab0adb5727d4d00844d",
  "name": "인현동1가",
  "longitude": 126.9941156,
  "latitude": 37.56455769,
  "guId": "63441c64be26106c41c6d749"
},{
  "_id": "63445ab0adb5727d4d00844e",
  "name": "충무로4가",
  "longitude": 126.9957563,
  "latitude": 37.5623014,
  "guId": "63441c64be26106c41c6d749"
},{
  "_id": "63445ab0adb5727d4d00844f",
  "name": "필동2가",
  "longitude": 126.9936874,
  "latitude": 37.5609011,
  "guId": "63441c64be26106c41c6d749"
},{
  "_id": "63445ab0adb5727d4d008450",
  "name": "충무로3가",
  "longitude": 126.9913569,
  "latitude": 37.56227923,
  "guId": "63441c64be26106c41c6d749"
},{
  "_id": "63445ab0adb5727d4d008451",
  "name": "필동1가",
  "longitude": 126.9918808,
  "latitude": 37.56198283,
  "guId": "63441c64be26106c41c6d749"
},{
  "_id": "63445ab0adb5727d4d008452",
  "name": "황학동",
  "longitude": 127.0206602,
  "latitude": 37.56855608,
  "guId": "63441c64be26106c41c6d749"
},{
  "_id": "63445ab0adb5727d4d008453",
  "name": "충무로5가",
  "longitude": 126.999309,
  "latitude": 37.56257547,
  "guId": "63441c64be26106c41c6d749"
},{
  "_id": "63445ab0adb5727d4d008454",
  "name": "필동3가",
  "longitude": 126.9970142,
  "latitude": 37.5605281,
  "guId": "63441c64be26106c41c6d749"
},{
  "_id": "63445ab0adb5727d4d008455",
  "name": "충정로1가",
  "longitude": 126.968471,
  "latitude": 37.56687882,
  "guId": "63441c64be26106c41c6d749"
},{
  "_id": "63445ab0adb5727d4d008456",
  "name": "태평로1가",
  "longitude": 126.9772372,
  "latitude": 37.56757145,
  "guId": "63441c64be26106c41c6d749"
},{
  "_id": "63445ab0adb5727d4d008457",
  "name": "주자동",
  "longitude": 126.9893955,
  "latitude": 37.56067892,
  "guId": "63441c64be26106c41c6d749"
},{
  "_id": "63445ab0adb5727d4d008458",
  "name": "회현동2가",
  "longitude": 126.9823486,
  "latitude": 37.56040748,
  "guId": "63441c64be26106c41c6d749"
},{
  "_id": "63445ab0adb5727d4d008459",
  "name": "회현동1가",
  "longitude": 126.9800414,
  "latitude": 37.56045182,
  "guId": "63441c64be26106c41c6d749"
},{
  "_id": "63445ab0adb5727d4d00845a",
  "name": "회현동3가",
  "longitude": 126.9840722,
  "latitude": 37.56002017,
  "guId": "63441c64be26106c41c6d749"
},{
  "_id": "63445ab0adb5727d4d00845b",
  "name": "흥인동",
  "longitude": 127.0168294,
  "latitude": 37.5675597,
  "guId": "63441c64be26106c41c6d749"
},{
  "_id": "63445ab0adb5727d4d00845c",
  "name": "태평로2가",
  "longitude": 126.9766923,
  "latitude": 37.56324338,
  "guId": "63441c64be26106c41c6d749"
},{
  "_id": "63445ab0adb5727d4d00845d",
  "name": "상봉동",
  "longitude": 127.0909576,
  "latitude": 37.60021633,
  "guId": "63441c78be26106c41c6d74a"
},{
  "_id": "63445ab0adb5727d4d00845e",
  "name": "묵동",
  "longitude": 127.0784998,
  "latitude": 37.61248742,
  "guId": "63441c78be26106c41c6d74a"
},{
  "_id": "63445ab0adb5727d4d00845f",
  "name": "중화동",
  "longitude": 127.0793966,
  "latitude": 37.60042857,
  "guId": "63441c78be26106c41c6d74a"
},{
  "_id": "63445ab0adb5727d4d008460",
  "name": "신내동",
  "longitude": 127.093149,
  "latitude": 37.610216,
  "guId": "63441c78be26106c41c6d74a"
},{
  "_id": "63445ab0adb5727d4d008461",
  "name": "망우동",
  "longitude": 127.1070746,
  "latitude": 37.60039173,
  "guId": "63441c78be26106c41c6d74a"
},{
  "_id": "63445ab0adb5727d4d008462",
  "name": "면목동",
  "longitude": 127.0904337,
  "latitude": 37.5819082,
  "guId": "63441c78be26106c41c6d74a"
}]